city,lat,lon
Zürich,47.3769,8.5417
Bern,46.9480,7.4474
Basel,47.5596,7.5886
Genf,46.2044,6.1432
Lausanne,46.5197,6.6323
Luzern,47.0502,8.3093
St. Gallen,47.4244,9.3767
Lugano,46.0037,8.9511
Winterthur,47.5022,8.7386
Biel,47.1368,7.2467
Thun,46.7580,7.6280
Chur,46.8499,9.5320
Sion,46.2333,7.3500
Schaffhausen,47.6970,8.6307
Aarau,47.3923,8.0444
